%time,field.linear.x,field.linear.y,field.linear.z,field.angular.x,field.angular.y,field.angular.z
1528372394056604470,0.00195231253162,0.00898589438631,0.00653584244308,0.0484690380165,-0.31363312509,0.151551576007
1528372394085299479,0.0039875861438,0.0110577266905,0.00496906763336,0.0865931617214,-0.440836580817,0.148928171687
1528372394108991926,0.00583707736501,0.0148713890345,-0.0327503848641,0.147202683488,-0.050654233449,0.199256749546
1528372394139442130,0.00368808528251,0.0196312029441,-0.0409547093306,0.523391793851,-0.00235302758997,0.17205800819
1528372394170245576,0.00389144838215,0.0110755163094,-0.00667624679804,0.124017969683,-0.227235131492,0.14956371027
1528372394204393918,0.00565357898043,0.00866854998887,0.00400247482801,-0.157270486698,-0.233248284717,0.187536295289
1528372394233800878,0.000762648601518,0.0129435473946,0.00144545080701,0.0891144100374,-0.24604439621,0.201719577783
1528372394263920112,0.00663058017342,0.0149642187015,-0.0140702091103,0.223388117135,-0.0803140473088,0.184317236938
1528372394293869997,0.00641546317957,0.0133587699824,-0.0088232623333,0.0887072913048,-0.152071300597,0.1055177007
1528372394347285821,0.00636905197858,0.0105813879063,0.00399564692239,-0.0274025126129,-0.244066026131,0.130002759247
1528372394368433776,0.00629769073138,0.00897263300102,-0.00115078042218,-0.0527272036419,-0.206120993299,0.129285418589
1528372394401444333,0.0147457803007,0.00731951216876,-0.00158565299767,0.0244499284516,-0.156179144255,0.072163924628
1528372394416807105,0.0187140171705,0.00669846049815,0.000878864927378,-0.100672443524,-0.290897758179,0.0663653243695
1528372394450809431,0.0223124297955,0.00651933047362,-0.0274219323708,-0.180578376074,-0.0413204187314,0.147230699996
1528372394499380645,0.0280431870996,-0.00929921692106,-0.025489420506,0.271439276615,-0.0945381898433,0.0591921935325
1528372394516198388,0.0359356149566,-0.00331719320804,-0.00128754300497,-0.0130908527524,-0.294477246417,0.153270981897
1528372394539913064,0.0407551188333,-0.00544666414583,-0.0253116681821,-0.0983001035168,-0.0397078501201,0.0722196156069
1528372394575560518,0.0447908670964,-0.00569235679135,-0.0240218614557,0.207239741209,-0.129477815015,0.13927964544
1528372394605335632,0.0515141380404,-0.00324736549816,-0.0193732088986,0.194619945178,-0.107130571926,0.175627100875
1528372394640002253,0.0534569194731,0.000446916720296,-0.0102291460989,-0.0301799904071,-0.175830727716,0.226450660537
1528372394672626015,0.0589952146603,-0.0106885791803,0.00267518805462,0.200887426468,-0.298777215211,0.142555756688
1528372394700966993,0.0648489533594,0.005926465525,-0.00636282540733,-0.0130403604929,-0.132907106026,0.190013826951
1528372394738171930,0.0671658923689,0.00445847606408,0.00265655741494,0.0970063084179,-0.178165611344,0.150258595724
1528372394767901075,0.0695946374146,0.0152078987991,0.0148291484963,0.134588328468,-0.233168326006,0.268513171246
1528372394796934522,0.0715199213411,0.0225493930905,0.0186289321744,0.0971127845501,-0.188586282413,0.303716668427
1528372394832224643,0.0718860866267,0.0178618164428,0.0302037156843,-0.00318330987915,-0.310308799224,0.278606459282
1528372394862232235,0.0689901187581,0.0153352468967,0.0125959556757,-0.0146510866402,-0.261855836174,0.326340242893
1528372394902446148,0.0619441415146,0.0053980661382,-0.00701034239829,0.0990995313979,-0.178209922778,0.348508090245
1528372394918314751,0.0693503970474,-0.015496306999,-0.0117182815252,0.0716552575062,-0.212000874329,0.190103142564
1528372394949734984,0.071826711819,-0.0100237104038,-0.0218987146348,-0.160773403442,-0.245127366908,0.28544801029
1528372394983056092,0.0689008802742,-0.0163069889009,-0.0428696640054,0.112267241574,-0.128610849682,0.254974329033
1528372395014503267,0.0719582611622,-0.0282426870322,-0.0368832319279,0.123192310842,-0.237026742627,0.224907754436
1528372395044148320,0.0760965442601,-0.0231979116459,-0.038078947483,-0.0317848220954,-0.23084507646,0.246195541293
1528372395087511637,0.0765105329274,-0.0473879333953,-0.0274623986374,0.155904905723,-0.333067337193,0.123774619033
1528372395117123722,0.0772222356401,-0.049103294316,-0.0111201006645,0.0380886518703,-0.511558946088,0.218305874886
1528372395136777521,0.0789383451722,-0.0577800298779,-0.027054659963,0.0364555774398,-0.323014354738,0.125690023738
1528372395182531757,0.0783911439043,-0.0542463573727,-0.0454019949744,-0.00872974388095,-0.218039116384,0.191005849664
1528372395211722947,0.0743614775056,-0.0526758010231,-0.0457719801813,0.0264372708212,-0.267099802766,0.178890874589
1528372395230264157,0.0729649359244,-0.0614759094536,-0.0418788787107,0.117786049219,-0.295132133155,0.135251352226
1528372395260674791,0.0699678267473,-0.0802290733864,-0.042445097331,0.0728132175109,-0.28777882969,-0.0169223885036
1528372395290900224,0.0665238886815,-0.0622046878799,-0.0514262579487,-0.0949384167776,-0.247198878748,0.133734509175
1528372395325810347,0.0616273296392,-0.0819580310392,-0.036388008266,0.302460581543,-0.403452559827,-0.0344052384287
1528372395356659651,0.0646900539407,-0.0866265344022,-0.0385320985768,-0.0283289677483,-0.370641062383,-0.0374889479043
1528372395391988441,0.0611787401105,-0.0918317609755,-0.0447071434318,-0.0897870309808,-0.380434280065,-0.047996115967
1528372395422257618,0.0625018330634,-0.0921340960736,-0.0598468596805,0.163963233152,-0.23256865976,-0.050073764052
1528372395453286529,0.0621094310583,-0.108022033052,-0.0565766065345,0.280572173854,-0.242780652227,-0.267708270748
1528372395487225905,0.0701589914512,-0.111787270327,-0.0638880466379,-0.120245821052,-0.190659461565,-0.352253773592
1528372395512960700,0.0730353871222,-0.0911703111397,-0.0627120805574,-0.034108777603,-0.228206955908,-0.251588145547
1528372395545169483,0.0787257663352,-0.107785346021,-0.0635951908518,0.10407758596,-0.240559053112,-0.441829101498
1528372395584263237,0.0908334629097,-0.0835141613173,-0.0868514745924,0.0133031422109,-0.0674020337688,-0.388694858655
1528372395616739676,0.0930485120005,-0.06567225343,-0.0891224352954,0.0558470305018,-0.171352523068,-0.331538570977
1528372395645326671,0.102541147314,-0.0686976790341,-0.0965172296107,0.088206257913,-0.128980801964,-0.425684098236
1528372395675428444,0.112223646496,-0.0564082008871,-0.113689271659,-0.0592314929082,-0.0360017023403,-0.365033065617
1528372395703047353,0.128179769278,-0.0827872013558,-0.12045556272,0.175215868204,0.0549268141124,-0.658580325461
1528372395732508576,0.139925758653,-0.0627087015614,-0.115430638948,0.399669264249,-0.0668169102652,-0.406591480365
1528372395762985859,0.153530931373,-0.0371195002943,-0.109665299595,0.030115432561,-0.123409892197,-0.413399844133
1528372395792787452,0.17660186058,-0.0365353004041,-0.112181504194,0.145858673322,-0.0788669700916,-0.424853367622
1528372395831378317,0.195689402699,-0.0119904713847,-0.120952897664,0.181917310494,0.0292990371088,-0.362012171949
1528372395867835386,0.209960734247,-0.00315442921702,-0.0968555126329,0.0990129199201,-0.206451107493,-0.380429628355
1528372395898820533,0.230444858104,0.0334602195281,-0.107131444905,0.00822315979702,-0.124344536415,-0.165875241547
1528372395919824639,0.24705340622,0.0466366615385,-0.114366338879,0.129887769006,-0.121306639621,-0.210088547391
1528372395952177207,0.264992415865,0.0678796332862,-0.127733200153,0.176784146641,-0.096538136005,-0.203496706436
1528372395982649274,0.281073694185,0.0816661324299,-0.133868517319,0.0487223702712,-0.210058438407,-0.287338998284
1528372396016816896,0.300292369885,0.095597546252,-0.15665121477,0.230352512402,-0.181769345904,-0.312654192447
1528372396061128394,0.315155193963,0.121147694406,-0.180927558659,0.147344334014,-0.093220485036,-0.225394779793
1528372396083958601,0.322938511701,0.132036083789,-0.197581604031,0.0738911769793,-0.146083991403,-0.287841695999
1528372396109153838,0.320124724456,0.134772416599,-0.206095617324,0.100350072415,-0.152356776422,-0.299429504543
1528372396139348745,0.316073494667,0.134648970862,-0.211686988416,-0.0898551254799,-0.212464914987,-0.381028992047
1528372396191864386,0.306974668426,0.156651169542,-0.214217452537,-0.220029008313,-0.361803458836,-0.244813241423
1528372396212998007,0.299315783419,0.177841627443,-0.243901448683,-0.25832389703,-0.247950109307,-0.174858724891
1528372396230322118,0.29050238615,0.177838197198,-0.268478121298,-0.0320426312604,-0.0555286343476,-0.255826881012
1528372396261014688,0.290242148853,0.162189420782,-0.26728235496,0.0583772295199,-0.0115985590626,-0.352127397932
1528372396295027301,0.296970442197,0.173505325506,-0.266599725951,-0.166959374107,0.0132816802138,-0.258723803638
1528372396332143785,0.300560189938,0.179581079599,-0.253367987489,-0.174060417195,-0.0458720959127,-0.270346270903
1528372396360279817,0.303774934601,0.163578277718,-0.258699159224,-0.180777383168,0.0871411577108,-0.410956494622
1528372396392667719,0.302239308951,0.149057307112,-0.245935468959,-0.178977387752,0.0358222448577,-0.402896477197
1528372396419108884,0.300031323958,0.149858825184,-0.230181885705,-0.305985233117,-0.0270862770608,-0.360931430826
1528372396449283867,0.298394293426,0.143678089403,-0.230648494242,-0.0778868844079,0.09895358735,-0.379722824634
1528372396481144265,0.299863995546,0.133942779884,-0.221558736063,0.297976404396,0.101970522309,-0.381466232517
1528372396521183237,0.302070726217,0.142575200859,-0.206889864683,-0.0245423804141,0.0126050464137,-0.259231141803
1528372396551389213,0.312255419337,0.137027588663,-0.202973829099,0.0291963596558,0.0192690801685,-0.285937859333
1528372396577736269,0.321144747379,0.143309811391,-0.197381621011,-0.0152223082727,-0.021660275194,-0.235503047885
1528372396608599887,0.321119466679,0.141557968227,-0.191560817726,0.0798734194869,-0.0385017187207,-0.225565004152
1528372396646977665,0.323147536099,0.136061581546,-0.189722750594,0.0889764188049,-0.0500249666584,-0.196644904001
1528372396677783202,0.320600493364,0.125477761801,-0.184324735622,-0.0350060411235,-0.0755465420922,-0.295722214396
1528372396701449493,0.319876606496,0.122504085514,-0.17685731578,0.0605076689111,-0.099636021459,-0.275357173995
1528372396734828501,0.322028980394,0.133848048603,-0.174445266865,0.022090615741,-0.1293917609,-0.122581435353
1528372396767990478,0.319259724115,0.117802285456,-0.171054424375,0.020184084083,-0.194179344525,-0.255382170949
1528372396798011551,0.328085852545,0.134647802015,-0.184853647605,0.0156415479205,-0.106021478311,-0.042371024333
1528372396832480627,0.3285561756,0.133796200384,-0.188643173624,0.080302074568,-0.130083726347,-0.087045474327
1528372396862164694,0.328026696355,0.140600181003,-0.194420919325,-0.0290679942139,-0.157259817383,-0.023838493581
1528372396892173778,0.329471480918,0.147768770582,-0.221060532779,-0.0405742332483,-0.0252168261572,0.0597133631585
1528372396919717153,0.326609784241,0.12429284855,-0.231322402212,0.0524507300175,-0.0209218165262,-0.103761219035
1528372396950566945,0.319965899884,0.118720766872,-0.235517646365,0.0397243413848,-0.0983342570871,-0.0971933764981
1528372396987811394,0.314386865228,0.110155667278,-0.255279895285,0.241025655726,0.0415717982206,-0.0545941317465
1528372397017080661,0.317984833523,0.107974622601,-0.269797543342,0.305667880124,0.140209513702,-0.092941436748
1528372397047413366,0.31830389627,0.105445498543,-0.251054947251,0.159900545844,-0.132465858415,-0.111726068217
1528372397082979053,0.312340097323,0.13853530992,-0.24861671614,0.0200608235746,-0.246673084987,0.182910707141
1528372397113077866,0.306057155891,0.115216036992,-0.255740003916,0.0338849677484,-0.16495528894,0.0359758803234
1528372397146629624,0.289005519742,0.0926538699651,-0.253356754956,0.0855892504133,-0.233909957235,-0.0718083182859
1528372397172807751,0.276875835754,0.116559198165,-0.279228976482,-0.0255907775327,-0.0294187398569,0.143105366902
1528372397200469816,0.266566497164,0.112945022794,-0.300707425962,0.16864134977,0.164894967982,0.145989676143
1528372397236619741,0.257069974314,0.0963814015967,-0.29055017117,0.217280477717,0.0879015047624,0.00236638599884
1528372397265482337,0.255970855465,0.108396840935,-0.285365151063,0.00132272788758,0.0615128805947,0.113372269956
1528372397296891944,0.250817855705,0.0828156804585,-0.256425897817,0.140317620093,-0.0988286798771,-0.0544403007495
1528372397332553486,0.250929366657,0.0734976313589,-0.236040512226,0.233005099486,-0.136547593533,-0.119846129052
1528372397363064514,0.247380401657,0.0872122223667,-0.220955539056,-0.0742083754321,-0.233768525028,-0.0684314836627
1528372397391245184,0.245063912012,0.100231682215,-0.219927741865,-0.0793324481991,-0.292101343874,-0.0289744831503
1528372397419193620,0.24803001422,0.116261164985,-0.242979817229,0.0649618856502,-0.145482946585,0.0804667194077
1528372397449785610,0.249674902492,0.104450155528,-0.251829951907,-0.0466449889952,-0.144382308615,-0.106273690006
1528372397507050501,0.254610595025,0.124254608768,-0.273966552747,-0.0334161089037,0.00660880814724,0.0201361473315
1528372397526860405,0.260966903765,0.123315281273,-0.28489257359,-0.0454088686511,0.155761266409,-0.056406021899
1528372397546847805,0.266679593052,0.0986707523831,-0.275443873287,0.194406630086,0.149052011669,-0.239124476722
1528372397580594523,0.266820650644,0.128514477889,-0.251959472872,-0.118878021057,0.0775664209934,-0.0575047670232
1528372397609509695,0.26011076688,0.146100229763,-0.224476896796,-0.156860623357,-0.0545577051971,0.0255293137373
1528372397638857763,0.258944364805,0.153095615905,-0.210361872956,-0.0957860405946,-0.0415356221222,0.0247521774342
1528372397669233460,0.263245757993,0.158942771737,-0.211270430207,-0.161618380908,0.0329876391692,-0.0160632111531
1528372397698518867,0.264501651721,0.169281003668,-0.203647662848,-0.143119892927,0.0290340805863,-0.0593243766131
1528372397737453800,0.272290730235,0.188054834361,-0.200501030666,-0.133649460741,0.025867801355,-0.0372068858108
1528372397767712839,0.282503120001,0.202904030327,-0.20462087286,-0.0784267981207,0.0503897943287,-0.0276792024468
1528372397798134838,0.291083583484,0.212534925628,-0.216794072658,-0.0337685015721,0.0880317880152,-0.0651094361537
1528372397829230810,0.294789774676,0.212552969037,-0.22810697526,0.091308796431,0.0908772336605,-0.0833037222568
1528372397863034330,0.300931846317,0.209135754105,-0.233331146536,-0.124100041177,0.0270990834978,-0.102761434797
1528372397891369607,0.306028287263,0.21255084582,-0.251743807502,-0.0711768225263,0.0949699250895,-0.077657840229
1528372397922350498,0.313491398396,0.199439192631,-0.257214568734,-0.0157844790457,0.184343769712,-0.188885394294
1528372397952473592,0.325416967513,0.190985387306,-0.256456258651,-0.0240991055229,0.217614285515,-0.206294425429
1528372397986977628,0.333975240259,0.183230708895,-0.22510369923,-0.0352907802661,0.0420655029294,-0.196045827664
1528372398017984677,0.340986008354,0.174731955555,-0.195223346478,-0.0507540036807,-0.0822992981691,-0.25839844392
1528372398043013217,0.351120063359,0.177597224065,-0.182584531234,-0.22561692344,-0.0864059950759,-0.102117646205
1528372398083649554,0.340631396357,0.150582023614,-0.160895090361,-0.0816008566064,-0.118195742323,-0.16009344021
1528372398114133790,0.330669434607,0.135924953947,-0.164265054833,-0.1085631012,-0.157341081053,-0.205444578453
1528372398143984215,0.318379315249,0.119620888948,-0.172905144558,-0.0447461176594,-0.024432866652,-0.178719027978
1528372398170046097,0.308491561087,0.0801870266623,-0.168643094754,0.0218787099498,0.0221880662761,-0.308631893084
1528372398200395158,0.298646421253,0.0637553892139,-0.160828929017,-0.119843702064,-0.0286574762297,-0.216385814355
1528372398235650318,0.288693811111,0.0533862390406,-0.150281139022,-0.181593491573,-0.12118812749,-0.154474047718
1528372398267678057,0.279854398726,0.0324678196313,-0.13935521147,-0.257642474537,-0.271069597974,-0.194795133367
1528372398295439793,0.274974289081,0.0247850229052,-0.154570109852,-0.325558828238,-0.175824820347,-0.0601253566374
1528372398333276489,0.26451480324,0.00657374480732,-0.176512284288,-0.177361413974,-0.0600135798893,-0.205951538128
1528372398365564121,0.257440458043,0.0184951518954,-0.192985045429,-0.166515144546,-0.00650815728879,0.00136649261465
1528372398393637807,0.253898446934,0.00682039083553,-0.198763432878,0.0227708433974,0.0158049892436,0.0375260300427
1528372398423309282,0.255520418298,-0.00355428239677,-0.191160677841,0.168589544897,0.0276998653708,0.106436378948
1528372398450252125,0.262676634674,-0.00513040286506,-0.176525391632,-0.12194961455,-0.119284260231,0.164011349695
1528372398485367886,0.271888605812,-0.0147897854303,-0.184866476843,-0.0906305583894,-0.0713665843665,0.225140565321
1528372398519072093,0.281418562749,-0.0182348273455,-0.202836202402,-0.0771442748332,-0.0018652163281,0.285515761228
1528372398546199219,0.282610574344,-0.0440795694649,-0.2145946733,0.140222861341,0.030940345887,0.183091470924
1528372398581976536,0.284631112616,-0.051344058861,-0.230599285568,0.086931122887,0.13799256496,0.287952370662
1528372398612125600,0.287414551529,-0.0762811529467,-0.240764591721,0.245339637817,0.25794210052,0.224252562497
1528372398640045721,0.294411078161,-0.104472947895,-0.225907328413,0.330111136173,0.148169014161,0.15070832163
1528372398672288301,0.304729424237,-0.102768849288,-0.218386678529,0.000573605712873,0.0337385544705,0.21414787483
1528372398713704851,0.303701340409,-0.111776965844,-0.20968044778,-0.0956645344039,-0.0887825428981,0.226019859532
1528372398735489403,0.300931437734,-0.138852000194,-0.202652053067,0.0203881709384,-0.131668182851,0.11643235486
1528372398766324750,0.301390298611,-0.143246532951,-0.221355655814,-0.0914116833222,0.0452477173829,0.196173335842
1528372398797543173,0.297597608929,-0.17363904629,-0.230587430715,0.134605928572,0.140429234286,0.0220809755802
1528372398836137852,0.296213918616,-0.186881644261,-0.216827055186,0.266434623668,0.077429326503,0.101854332316
1528372398864691947,0.296701280849,-0.186859800462,-0.205656872179,0.0236181340278,0.0182152193674,0.188533634622
1528372398890828510,0.29675121304,-0.205992332539,-0.195923659509,0.0846356401668,0.027224770648,0.121079157685
1528372398919402024,0.294523413152,-0.216210752288,-0.177909486496,0.0443305533183,-0.0191459379842,0.116071846485
1528372398952422342,0.297549615421,-0.224078052453,-0.167735308509,-0.0799331261016,-0.0161525362025,0.0790955133507
1528372398988841590,0.292553637076,-0.22657038373,-0.152808155421,-0.00500536529857,-0.0166648111176,0.0646028075614
1528372399017049265,0.283327875579,-0.236425135179,-0.133374219837,-0.0100842522782,-0.0425727598682,0.0229123750611
1528372399049913607,0.278777568229,-0.239713980943,-0.130323226459,0.0740944511784,0.0224109999738,0.0622722387638
1528372399085765738,0.263463709998,-0.244145855562,-0.110138691732,-0.0214415064111,-0.0226746037834,0.0210905081735
1528372399113631954,0.255814929888,-0.245185376512,-0.100905930021,-0.12149224492,-0.0317821027775,0.00755377068762
1528372399142434135,0.240024405558,-0.243672688112,-0.0920699469687,-0.053307117569,-0.0500513196081,0.0316722886975
1528372399170016531,0.228793791888,-0.243548190151,-0.0887179188632,-0.120526174671,-0.0556350939549,0.0513034820601
1528372399198860575,0.221238771518,-0.245293999127,-0.0985712692744,-0.0792334625256,0.0493817202241,0.0208109939459
1528372399235096459,0.211288419494,-0.25254688633,-0.0933650522648,-0.0161456674074,0.0746777624813,-0.0553062188492
1528372399266356091,0.199329567443,-0.25954619711,-0.0624872663991,-0.0828243685863,-0.111282502218,-0.0547415150417
1528372399297749923,0.194780275147,-0.258625886718,-0.0611345200082,-0.128448857715,-0.0607940391228,0.0052611706782
1528372399334496366,0.187116955115,-0.267932304228,-0.0481818565799,-0.0610516057295,-0.0817042434921,-0.0730320143335
1528372399362865580,0.179297677697,-0.26818526218,-0.0246223697711,-0.215840238139,-0.247503689749,-0.0954726684329
1528372399391932006,0.173386840053,-0.258458519431,-0.0392970386975,-0.169053889035,-0.0930135885739,-0.0228874653324
1528372399422609474,0.163524028779,-0.265799539301,-0.0538288837604,-0.000263330079875,0.0356433671651,-0.0641660876342
1528372399449284187,0.147800211409,-0.276372636199,-0.0332236514053,-0.0654493751132,-0.129599927976,-0.135312986032
1528372399484142221,0.132758252203,-0.275732867174,-0.0323583940507,-0.273183146513,-0.0839898571987,-0.0712430748687
1528372399513711574,0.109760726659,-0.289658748669,-0.0267183015203,-0.19934632162,-0.0736934632159,-0.063817874417
1528372399544090964,0.0875922308129,-0.323437750951,-0.0178617183199,-0.102244399402,-0.120744027006,-0.165746066505
1528372399598016174,0.0646286622111,-0.326787593867,-0.0155234515687,-0.135632109393,-0.0906942027734,-0.0213999710956
1528372399616085166,0.0434019679087,-0.33075128183,-0.0202620871682,-0.183905871846,-0.0140435547598,0.00556783297191
1528372399637874167,0.030083054965,-0.339712657162,-0.0266186020391,-0.0556190700342,0.137512959183,-0.0220257181197
1528372399667843105,0.00720877502149,-0.35271439788,-0.000915555912392,-0.0024358704759,0.0155466719028,-0.0357320747976
1528372399697164606,-0.00418157056238,-0.359636267896,0.0170261336098,-0.0873434245734,0.00597726241788,-0.00441430669958
1528372399735387972,-0.0121118821455,-0.365664039845,0.0384273960517,-0.0496433908997,-0.0349045322343,-0.0126941027652
1528372399770024509,-0.0215336183116,-0.370023286418,0.0600713791123,-0.0433688998381,-0.0735330840092,0.0144995531323
1528372399801713417,-0.0330171127874,-0.401162417343,0.0934281111394,0.181429875015,-0.172140750613,-0.0973592227055
1528372399835727597,-0.0273596085857,-0.395441234423,0.122929189189,0.0340299090284,-0.16824151796,0.0246631666713
1528372399866107320,-0.0251202464401,-0.389069444201,0.155217789929,0.0526150193894,-0.215113014866,0.0271477312137
1528372399890575943,-0.022938366676,-0.384953130339,0.182135258844,0.0234857774232,-0.291822644537,0.0990465403051
1528372399920742473,-0.0240258188275,-0.397248829732,0.198024841439,-0.00225635490969,-0.338080955363,-0.00708619243136
1528372399952851605,-0.0265066095246,-0.407109845224,0.178083218575,0.123958007564,-0.0604450716881,-0.016990655429
1528372399987206667,-0.0393323145974,-0.417178085773,0.182014094285,0.224506926157,-0.1246276259,-0.0589446085995
1528372400017461701,-0.0488905290318,-0.390513359181,0.190871073473,-0.0995725561317,-0.26232321002,0.111317547216
1528372400046869193,-0.0529723577518,-0.373060861965,0.161438745932,-0.0280400970406,-0.137113508939,0.185978035543
1528372400084065016,-0.062194891515,-0.382219707136,0.143952691013,-0.0393482529323,-0.124799227475,0.0470807058877
1528372400114656233,-0.0665881617371,-0.378380094386,0.111085625891,0.0333818758689,0.0481996433306,0.0771972079289
1528372400144398247,-0.0643334717793,-0.381591196332,0.100179515372,-0.0934165707705,0.0592819595554,0.0356654594146
1528372400170770792,-0.0642850648885,-0.377145496167,0.0877778794011,0.0277048591834,0.0578999107507,0.0848084636819
1528372400200939173,-0.0559270760113,-0.369652773065,0.0687415380592,0.0403886621097,0.19034933638,0.0797557074096
1528372400230167810,-0.0521409633573,-0.361994014261,0.0667191728802,-0.0674767953171,0.0908538887569,0.124299346245
1528372400269110735,-0.0475151837323,-0.362757030481,0.0476280680729,-0.00690940182527,0.160502993083,0.11728699083
1528372400304178566,-0.0393497992248,-0.354811212816,0.00871108705701,-0.0379366767154,0.340598729794,0.158947815973
1528372400335361266,-0.0347594656131,-0.36332423856,0.0121823986161,0.0907148367935,0.185081154891,0.078536440788
1528372400365929231,-0.0253763656227,-0.350852003955,0.00944694559426,-0.0112609113136,0.181722592201,0.150757279147
1528372400391965048,-0.00879380999568,-0.346365426857,-0.0169835937258,0.0955469432114,0.451051437578,0.171279071855
1528372400419866681,-0.00782107178191,-0.363916099747,0.00919412093535,0.264085997031,0.274083617789,0.110343686114
1528372400448336201,-0.000501406540417,-0.353226996026,0.0327501539969,0.0348331127935,0.144947316076,0.265716660575
1528372400485967408,-0.00162163011846,-0.355998172264,0.031596993255,0.0300760742819,0.19130610927,0.275624167274
1528372400527593181,-0.00617018443288,-0.387576307772,0.0399897851494,0.378975706887,0.206503581197,0.152983897112
1528372400571583738,0.0118140883435,-0.385805059372,0.0353956357481,0.134364842873,0.293026998309,0.198302040623
1528372400615626310,0.0168415650469,-0.38619320701,0.0534159515747,0.0544909297946,0.141649412146,0.190322581503
1528372400615643670,0.0100314593414,-0.379691249909,0.0591703152842,0.0427770112592,0.0946705854479,0.218446432096
1528372400659588548,0.00784993968824,-0.380543770709,0.0428347932505,0.155155782344,0.269913192505,0.191578485999
1528372400672879369,0.00167899476384,-0.39123599688,0.0527320907548,0.196691751738,0.215227950925,0.0765610236608
1528372400715599834,0.00104466002336,-0.383943581651,0.0457346465648,-0.0962596733063,0.269283082155,0.165495351547
1528372400759611098,-0.0033049540062,-0.393078055471,0.0315961726391,0.0939298197841,0.35852959149,0.145131247021
1528372400803598459,-0.00673953086081,-0.395671865707,0.0354455181215,0.101817926432,0.296911683336,0.0955448605432
1528372400803615624,-0.00641293034023,-0.38921927772,0.0360204213312,0.0813437088187,0.247281453376,0.0778824594495
1528372400847635142,-0.00714080886425,-0.374557875832,0.0388189416284,-0.0864009929692,0.197547728573,0.0775831737108
1528372400862928703,-0.0130701429056,-0.361538040158,0.0337909190378,0.00482351269526,0.218824297283,0.0146733199447
1528372400903593974,-0.0204811286457,-0.34004363462,0.0380452524958,0.0432870717743,0.153289296736,0.0390869956074
1528372400947664326,-0.0240965373691,-0.314338779837,0.045876979411,-0.105968967639,0.109962311689,0.0889956715167
1528372400991577423,-0.0302031449164,-0.297599004209,0.0526351522504,-0.214937342898,0.0834753107878,0.102878441905
1528372400991584133,-0.036744933795,-0.28765583361,0.0396550431548,-0.0434867282726,0.275436598506,0.0723352230943
1528372401035593496,-0.0429763449501,-0.278112488411,0.0438251433588,-0.0273793580926,0.286115857197,0.0620181818173
1528372401044072395,-0.0542248089168,-0.261690352526,0.0630249621638,-0.14073616961,0.231297297743,0.14085795891
1528372401087516766,-0.0629895840283,-0.258065881148,0.0758783644812,-0.0454853184303,0.25344583654,0.0644285334394
1528372401131593402,-0.0737130451469,-0.252114603423,0.0912176022937,-0.0374620421289,0.217528607292,0.0840013096307
1528372401175803994,-0.0885574344982,-0.24094045487,0.0888855200847,-0.0643510656552,0.291547859492,0.161481975513
1528372401175812329,-0.102038471515,-0.252425870855,0.0906856822615,0.0699201584425,0.309007605681,0.117152503472
1528372401219646113,-0.108450028898,-0.241843331792,0.0780024422026,-0.273553864992,0.413882531185,0.225266639653
1528372401228118325,-0.131235211244,-0.254910574229,0.0817780072382,-0.09418893833,0.368217252678,0.0998035861734
1528372401271726283,-0.145958585351,-0.266451787804,0.090568060162,-0.110382627541,0.221058864821,0.0161679569
1528372401315593870,-0.156944698469,-0.255204295568,0.0926412382036,-0.248075369787,0.1886640508,0.10505411452
1528372401359623265,-0.167744777206,-0.26137590741,0.100626555967,0.0268791678556,0.1175854676,0.0372875863222
1528372401407536032,-0.170724941681,-0.264335761048,0.0935236515272,0.152755254148,0.250428870639,0.0126090784805
1528372401407544771,-0.178082758661,-0.258761273217,0.12188823079,0.022688307383,0.0469502541602,0.0593266941216
1528372401447604356,-0.178705225189,-0.254702060497,0.139399175073,0.0422607341641,0.0266926518048,0.0760459886482
1528372401453026405,-0.185289344316,-0.259702353133,0.156163996112,-0.0737145604562,-0.0496537512354,0.0622871326723
1528372401495600163,-0.191529118606,-0.260655612028,0.156642172992,-0.020747448182,-0.0244556910108,0.146535014398
1528372401539544395,-0.193009227085,-0.266929463036,0.129254742898,0.0333654708912,0.227449070148,0.12932948909
1528372401583731270,-0.196692863972,-0.282224278027,0.117406779952,0.0853613763077,0.239943665846,0.0921692378776
1528372401583739383,-0.191554232485,-0.298904109539,0.122881031915,0.0902388689207,0.166746944268,0.0242455700157
1528372401627525981,-0.18098744204,-0.283239570591,0.115227143193,-0.00448268227665,0.284241298978,0.182419859317
1528372401637877367,-0.179808762717,-0.295487635331,0.125319062642,0.087871645539,0.194782326607,0.0654368532379
1528372401679533983,-0.172261872614,-0.297611846753,0.131509018187,0.00274953759651,0.13620888553,0.0877506516392
1528372401723553726,-0.166981798474,-0.295528915879,0.115586136619,0.0596427770952,0.214979409707,0.134037119452
1528372401767568008,-0.156625255317,-0.30536309706,0.115524421964,0.210425651299,0.112310285372,0.100813677753
1528372401767580409,-0.141788045643,-0.301117599809,0.114181890399,0.0584942650535,0.0423863888548,0.118607965729
1528372401811580303,-0.129280994806,-0.306564194866,0.0996406801229,0.0169288825788,0.0866991799163,0.058304879389
1528372401835659131,-0.113302893342,-0.313628314403,0.0895077224133,0.102875803853,0.0255783226887,-0.0111172517843
1528372401879593919,-0.0973922137479,-0.306138724839,0.0820411284591,0.0777960614524,0.0446471363915,0.0387133375361
1528372401923611160,-0.078131445806,-0.303677660973,0.0664579606499,0.0485318131373,0.109932625539,-0.00714933716657
1528372401923625063,-0.06204379366,-0.299032619493,0.0552095726094,0.114069105446,0.127724912918,0.00729426818535
1528372401967618782,-0.0507432260494,-0.309164601152,0.0532501639028,-0.0171057635342,0.0603268211954,-0.0971526589016
1528372401980267430,-0.0386936014013,-0.297686818138,0.0459629302021,0.0473999696775,0.0894022465788,0.0661220767467
1528372402023614932,-0.029774918161,-0.311755457807,0.0450448795896,-0.0121315208035,0.0531218069566,-0.0432825679595
1528372402067618715,-0.022079947336,-0.312650398571,0.0401153275233,-0.0221057566373,0.0287432640491,0.0178753802785
1528372402111626244,-0.0137376919998,-0.305775633187,0.02993072826,-0.0375608639196,0.0880031255963,0.0870410820164
1528372402111648557,-0.00820353193311,-0.315888569818,0.0245521529091,-0.0129527399039,0.0965888957632,0.0155245749341
1528372402155633416,-0.00450441200285,-0.308284854412,0.0133965222337,0.0725184121388,0.165121657661,0.112850931776
1528372402173594769,-0.00422046531633,-0.313165452224,0.00978408762728,0.0571795119715,0.169832563423,0.100632342464
1528372402215614590,-0.000469680581773,-0.320938967211,0.000757076282358,0.0062471873287,0.246123555643,0.0896295725082
1528372402259637080,0.00320555638992,-0.326772764777,0.00725496623298,0.0325776130211,0.182204611152,0.125898067696
1528372402303601494,0.00570703529622,-0.33476959476,0.0121067455603,0.0530247946166,0.127323386423,0.0877906386987
1528372402303613292,0.00430612685858,-0.341607934159,0.0122452998244,0.00603989227582,0.111500325425,0.0939379692786
1528372402347596879,-0.00299960199926,-0.347036849579,0.0143193013199,0.00514154191078,0.0953660079369,0.119295191291
1528372402361940605,-0.00704614150374,-0.356941384504,0.0103860359776,0.211337395285,0.184083190112,0.108523748404
1528372402403622155,-0.0117668101375,-0.364239850799,0.0288949059712,0.0419670968538,0.0642316037854,0.124173082425
1528372402447661615,-0.0127153736278,-0.367306208439,0.0290229213427,-0.0874817177198,0.13004964712,0.139848460899
1528372402491546476,-0.0220909297239,-0.368704068785,0.0264792939273,-0.0958366277714,0.175403606899,0.184577198469
1528372402491557444,-0.039168952306,-0.383584516228,0.0342004031618,0.041765258485,0.102618303614,0.122710279125
1528372402535611591,-0.0502171050633,-0.389094840755,0.0348632708054,0.0762469901885,0.152099013691,0.137109609579
1528372402551719198,-0.057879560078,-0.38098382292,0.032884229649,-0.0405993159005,0.165653470038,0.193526701045
1528372402595555867,-0.0676758819291,-0.383028098845,0.0421943664796,0.0564438727456,0.046791300524,0.140599169284
1528372402639584491,-0.0765374850589,-0.372938835723,0.0261532728153,-0.0343962248174,0.159544367349,0.213729138584
1528372402683602323,-0.0900169248244,-0.375756051575,0.0209634179311,-0.0868862400644,0.0932133700742,0.166867334652
1528372402683617190,-0.0969355934656,-0.346731138092,0.00695214666848,-0.151975775019,0.161007048294,0.324524410119
1528372402727559267,-0.106560101177,-0.335711360968,0.00175806928715,-0.171426440205,0.117681996671,0.289696172723
1528372402728390083,-0.113312718775,-0.324309721245,-0.00405443944472,0.104841456249,0.154119418273,0.325810462357
1528372402771630908,-0.116747463115,-0.318557566415,0.00806960370981,0.0734602425807,0.0938681152136,0.285527938991
1528372402815582412,-0.1149426089,-0.319277458551,0.0236479199099,-0.153824436181,-0.0161514345583,0.161193822938
1528372402859588624,-0.113204615397,-0.313578800442,0.0260455732918,-0.101509045077,-0.00633533936095,0.161146050656
1528372402903630890,-0.115413272482,-0.313813812405,0.0214167380927,0.131126443733,0.0441300160843,0.151207603001
1528372402903649756,-0.114666505892,-0.325014972405,0.0304316525852,0.00408718349028,0.0132396928194,0.00619837656773
1528372402947583438,-0.115966709629,-0.314953866081,0.0382997192479,-0.115563212973,0.0471022897351,0.0814595722142
1528372402949331077,-0.124228025142,-0.319284745441,0.0445553983379,-0.186475641194,0.0123426536997,0.00947405945129
1528372402991611738,-0.133888099124,-0.331548732493,0.0451267637715,0.208780809354,0.0515519028419,-0.0826388660687
1528372403035575750,-0.144454429715,-0.325016723604,0.0551869585569,0.0219432860656,0.0266245873234,-0.0449706348643
1528372403079608553,-0.153881312252,-0.332737030935,0.0495333057583,0.0290396136145,0.0822401087717,-0.051426574338
1528372403123595097,-0.170163463404,-0.322557410447,0.0568256374408,-0.0755592625251,0.0513840047797,0.00836074216917
1528372403123614782,-0.190778230808,-0.298183746177,0.0537550840302,-0.233512295976,0.0576714517451,0.118947417073
1528372403167597015,-0.208689502619,-0.293088014561,0.0409666501818,-0.16171308057,0.108439815115,0.103796701553
1528372403171057330,-0.231981653651,-0.283141257425,0.033998658232,-0.0236624580778,0.152516549198,0.146321011268
1528372403211735565,-0.255303446547,-0.254238679441,0.0445399894143,-0.252516267698,0.0232472229617,0.370793961703
1528372403255635345,-0.273421473399,-0.244453708631,0.039184905438,-0.406646835466,0.120829631603,0.453716687582
1528372403299575776,-0.281609145593,-0.28031786761,0.0546426108311,0.0560937461641,0.0100597325979,0.138993106581
1528372403343696950,-0.286882108706,-0.294560439679,0.0727011074289,0.322205618533,-0.00581899476607,0.16322858328
1528372403343705513,-0.283054578166,-0.290662364866,0.0845691177481,-0.104147041132,-0.010585805287,0.161863174017
1528372403387603790,-0.277329391604,-0.302448455833,0.0921228026834,-0.195743655204,-0.0659194695581,0.090296029656
1528372403387624680,-0.270916574813,-0.327167436091,0.0929993304805,0.222035255215,0.00923361393148,-0.0900891914602
1528372403431603276,-0.265634846058,-0.337428385193,0.103804817439,0.205753550396,-0.0639830494388,-0.0901587114681
1528372403447697622,-0.25800986759,-0.326658364971,0.105976666911,0.000312244286342,-0.0593989632552,0.00554892280825
1528372403491576696,-0.249914602572,-0.31279942658,0.104747944176,0.0363873627295,-0.0790695928408,0.142556237427
1528372403535628604,-0.239729849688,-0.33131043799,0.0895627197764,0.0965426275408,-0.0031965503765,0.00872479914061
1528372403579568530,-0.226800296456,-0.339087973713,0.0741147354756,0.0861020237375,-0.00745141613192,0.0481577065673
1528372403623568093,-0.208938179828,-0.330926271956,0.0538610299043,-0.299621374788,0.00389522323331,0.0707897040755
1528372403623578651,-0.194800639114,-0.323918398334,0.0333779594164,-0.10036050937,0.0721005866616,0.130539314508
1528372403667605840,-0.186242545145,-0.328070069377,0.0177413493087,0.210045408322,0.13560409277,0.0796548170314
1528372403671159909,-0.175846790994,-0.329869527367,0.0172043189771,0.119502588872,0.0542851021458,0.0345911622563
1528372403711551970,-0.16382850743,-0.320506222926,0.00193432499868,-0.00776340752312,0.124278709828,0.127676739257
1528372403755621594,-0.157187338135,-0.321304642227,-0.00735816070845,0.136806161885,0.17523678435,0.169882443874
1528372403803628217,-0.149042040262,-0.319110725528,-0.00585654148375,0.0635439046787,0.16952039487,0.185503830895
1528372403803642679,-0.144667925423,-0.31576690487,-0.0112911424634,-0.069508025933,0.169573539967,0.160598676932
1528372403847549909,-0.145751655507,-0.304911054846,-0.0174611223102,-0.206022519154,0.160922003936,0.246904285853
1528372403857638402,-0.148382382349,-0.300232972428,-0.0249487355612,-0.191445986147,0.183124988355,0.277251072023
1528372403899670684,-0.147855197237,-0.316205625898,-0.0288360283602,-0.00744501949741,0.2236254575,0.170325361036
1528372403943568710,-0.144331634746,-0.322013391747,-0.0152303026521,-0.200527879494,0.145611163857,0.103933984338
1528372403987636810,-0.14351441472,-0.311907732381,-0.00751439177477,-0.140635423012,0.141268384772,0.247521845428
1528372403987648501,-0.142589962907,-0.320993264887,-0.00810091468404,-0.0491967221472,0.198364957864,0.160276606651
1528372404031611360,-0.145731496213,-0.312419368213,0.0133585204693,0.037086352966,0.0509411534523,0.248346913872
1528372404050981920,-0.156146159555,-0.296735135852,0.0321282583844,-0.0699360092744,0.0183357030203,0.344888445198
1528372404095601591,-0.17464736101,-0.308397638596,0.0439418311464,0.0882166734653,-0.0290420882461,0.277983407551
1528372404139619779,-0.185634291216,-0.313120277638,0.0450409392115,0.115572487257,-0.0115584546974,0.281981168805
1528372404183888964,-0.191298587541,-0.293967409403,0.0426351038165,-0.262757113278,-0.028602773207,0.383577596452
1528372404183911313,-0.195093307819,-0.275576567725,0.0317483734065,-0.321308859047,-0.0096199031857,0.406972741681
1528372404227595496,-0.200304528664,-0.292412755804,0.0176179251195,0.128738269912,0.0676741354188,0.195430222467
1528372404233141716,-0.206353584015,-0.27531131422,0.0191606052141,0.0268990348544,0.0228771036069,0.228745257021
1528372404275568112,-0.216636881535,-0.238197707805,0.0157916553188,-0.159475024144,0.0640366103865,0.432504776758
1528372404319633727,-0.227090101531,-0.248418824139,0.0146552807757,0.0459363959691,0.0132538806813,0.189225663401
1528372404363597993,-0.236402997955,-0.249759775532,0.00822275634507,0.1437031286,0.0841583954061,0.135250936419
1528372404407676547,-0.244954527644,-0.224302766648,0.00301762597003,-0.224805999826,0.0155645003034,0.178312856067
1528372404407693142,-0.247539621595,-0.237532579767,-0.01973640738,-0.111325768622,0.177960595622,-0.0127506001537
1528372404451514660,-0.246965005192,-0.229510996159,-0.0209926863624,0.0461794541165,0.162047250487,0.0204704544936
1528372404451525001,-0.246752570023,-0.215882526975,-0.0116613386312,-0.285693826186,0.129523610853,0.041302049955
1528372404495568187,-0.252418180241,-0.230295694166,-0.0170425333827,-0.173291334764,0.133094697883,-0.0895700886433
1528372404515869526,-0.25586062243,-0.251425163675,-0.0123006151119,-0.0501335347958,0.123329860449,-0.292927148786
1528372404559563283,-0.262865003065,-0.247365962644,-0.00766368137013,-0.200330125276,0.0963369788253,-0.232904069942
1528372404603588181,-0.274692718278,-0.225975547675,-0.00608231913266,-0.228166233137,0.0448892518637,-0.161704826395
1528372404647614359,-0.285732868812,-0.223113571501,-0.0125792010789,-0.0993699782647,0.0856893162981,-0.261923514468
1528372404647625246,-0.296995834726,-0.188971302117,-0.027179606507,-0.180862356255,0.230258560724,-0.0598805427778
1528372404691589739,-0.31307394143,-0.176182339138,-0.0296890759788,-0.416070613541,0.160675431653,-0.133761771645
1528372404702300780,-0.334270141369,-0.169821435312,-0.0427106346416,0.00454001506873,0.295094190759,-0.15871570184
1528372404743725128,-0.354523100823,-0.134610598197,-0.0358953940028,-0.308854626895,0.238600136518,0.0166059459586
1528372404787602370,-0.380636418095,-0.140790433633,-0.0425154388712,-0.141595574547,0.336368857422,-0.0889514184548
1528372404831621668,-0.395878898837,-0.163146254699,-0.0236279764843,-0.167350744223,0.202738459846,-0.240633132625
1528372404875582575,-0.405338907071,-0.18649929126,-0.00566988918925,-0.0681589267092,0.161851153572,-0.340015376373
1528372404875599261,-0.411234568291,-0.206230136906,-0.000386863715589,-0.119876969964,0.141877472803,-0.44817064565
1528372404919936521,-0.407458470905,-0.212027446397,-0.0112245876465,0.0120933960559,0.21880671455,-0.418771494062
1528372404923803050,-0.404896996654,-0.205986810269,-0.0118901810856,-0.288443499389,0.172825746417,-0.408145652045
1528372404967597670,-0.399891679794,-0.20188169425,-0.0210324938159,-0.305247578447,0.206771119439,-0.359604704845
1528372405011599839,-0.397112922741,-0.203781377154,-0.0263317834802,-0.216964862515,0.132228670398,-0.364817962908
1528372405055643785,-0.383421235377,-0.198477256432,-0.0316093167984,-0.256223257656,0.126340563975,-0.331570234244
1528372405055653089,-0.36501422777,-0.204441643754,-0.0326033125949,-0.267698954342,0.030675099838,-0.330411483546
1528372405099576870,-0.341768367276,-0.190843684637,-0.0380932569842,-0.0822486179662,0.0508567690739,-0.254002479285
1528372405107432738,-0.321043501321,-0.169571037113,-0.0362221576596,-0.267266245123,0.0515258648345,-0.147939180889
1528372405159310100,-0.299755637802,-0.161831871434,-0.0389084685996,-0.115379680838,0.0690772538095,-0.116923056536
1528372405199561658,-0.282167093622,-0.138561929365,-0.0342812585967,-0.246923514021,0.0740781163787,0.0900038473936
1528372405199572725,-0.259398483507,-0.141514827744,-0.0324427505267,-0.306640750219,0.0765141554904,0.0241320001533
1528372405243787049,-0.244168045909,-0.133411610185,-0.0298957727483,-0.292843295983,0.113768676386,0.0871124147639
1528372405263746905,-0.230230753645,-0.127194689281,-0.0244604100122,-0.285638643759,0.135028173281,0.144960687844
1528372405307581846,-0.228561200194,-0.127725358419,-0.0127740519481,-0.128105033278,0.0535420100704,0.182674650732
1528372405355953033,-0.223035210798,-0.13437190889,0.00752670561375,0.0214883832749,-0.0460843270317,0.197684355087
1528372405399519871,-0.213975263802,-0.144744296246,0.0137461261067,-0.0262696915352,-0.0136297100659,0.10045924442
1528372405399529777,-0.216262638571,-0.143252308278,0.0314718690761,0.0794505174725,-0.150489563818,0.221989241629
1528372405443607195,-0.208952747434,-0.146281026782,0.029092468319,0.0156155577277,-0.021750806772,0.169782204453
1528372405447906016,-0.211762723355,-0.131606959361,0.0218596661947,-0.0157242544162,0.0774965224321,0.231878305048
1528372405491601957,-0.217057053228,-0.139177126908,0.0326894111534,0.0223958171286,-0.0641797435977,0.143467275848
1528372405535595868,-0.221851130432,-0.137301477024,0.0311309036893,0.215162483501,-0.127652818544,0.24107622816
1528372405579579743,-0.225627382815,-0.133272161573,0.0074836346807,0.0927639891984,0.132544501559,0.253053846002
1528372405627612507,-0.230920388809,-0.149293418739,0.0113482711639,0.0695670237588,0.0170148689723,0.102950399748
1528372405627624407,-0.235679584691,-0.148344389148,0.00663765337888,0.199498080145,0.00443299600359,0.159006993484
1528372405671603122,-0.239703578642,-0.140336781174,0.00456736594086,0.0937567485501,-0.0256030197448,0.187590919376
1528372405672665904,-0.23676461693,-0.135481870674,0.0182729441296,-0.0126661039584,-0.0905969162927,0.123588023213
1528372405715560511,-0.237449204835,-0.12802630893,0.0210787726816,0.069518206246,-0.0293425411678,0.112633585372
1528372405759555084,-0.237858435018,-0.114962941858,0.0259518879977,-0.149979671123,-0.0249323386874,0.104709224515
1528372405803663784,-0.237126801458,-0.111734468979,0.0288277884592,-0.00317670348793,0.046692666353,0.0195985591508
1528372405803679913,-0.238465938392,-0.0986719369755,0.0419868826233,0.0641286346473,-0.0914413182181,-0.0364320898198
1528372405847617381,-0.242504944179,-0.0734585206178,0.0526331855253,-0.0460327795073,-0.248645387933,-0.0179987899522
1528372405863094107,-0.235627269383,-0.0680782189241,0.0260580385128,0.0751033065009,-0.122059921664,-0.101453019638
1528372405903611860,-0.230173381461,-0.0412206261212,0.0183366846877,-0.0863808713215,-0.0805408986903,0.0024286740096
1528372405947638746,-0.22348374584,-0.0263188451746,0.0244111102841,-0.0765822776454,-0.126682941935,-0.0592971502222
1528372405991760406,-0.226083339336,-0.0138160935611,0.038924139734,0.12886865963,-0.19247056377,-0.0624906334405
1528372405991772501,-0.234328185748,0.00902398006339,0.0310472158875,0.15372388828,-0.116169304639,-0.0305677591549
1528372406035607763,-0.252034294893,0.0322916502421,0.0311702745399,0.0176314704592,-0.0946126101672,0.0294552711932
1528372406046481111,-0.26762412519,0.0447725195408,0.0369516726811,0.232300864555,-0.135422150944,0.0631364146876
1528372406087583217,-0.281149827803,0.0527724106513,0.0506002030252,0.0619266147721,-0.200951783739,0.0558377086491
1528372406131571581,-0.293981558826,0.0542037498101,0.0522831995364,0.182167680354,-0.115312019105,0.011474768661
1528372406175721783,-0.308194289441,0.0505744378318,0.0668104136585,0.202200217505,-0.193626544278,-0.0397105918266
1528372406175731914,-0.325005389758,0.0456184299092,0.0671431842029,0.146453038101,-0.0309149458931,-0.11839798296
1528372406219597094,-0.341257890112,0.0397436161693,0.0745672165528,0.107005559933,-0.036644757108,-0.159614562317
1528372406229652392,-0.362935379863,0.0348793061549,0.0864607138683,0.190006142332,-0.134884243924,-0.177927620132
1528372406271641231,-0.38404571847,0.0384007543965,0.0906791254997,0.15495630008,-0.145949535902,-0.111702476557
1528372406315622564,-0.404915467625,0.0320088200034,0.104668994591,0.239414942461,-0.252108147918,-0.171659582334
1528372406359630692,-0.415041416299,0.0392929881311,0.109590870113,-0.0427141348894,-0.301139151018,-0.213398943613
1528372406403803361,-0.420279568636,0.00873606984717,0.122033708746,0.106925688583,-0.278915666305,-0.413126829624
1528372406403819998,-0.434867121712,-0.00849288001794,0.110740946321,0.241308420432,-0.169933545705,-0.512346880935
1528372406447675798,-0.442314708375,-0.00401027358891,0.0948301196654,0.00632592805346,-0.123520884684,-0.463867210973
1528372406451918428,-0.438608030881,0.00216028734983,0.0819963394537,-0.0442023170343,-0.0417598200341,-0.373331074512
1528372406495632804,-0.434482435763,0.000467163964732,0.0936607620743,-0.0953605490457,-0.140845448047,-0.40450176002
1528372406539651285,-0.428351296925,0.0112921971045,0.0882093888265,-0.0900081992043,-0.0599391099829,-0.346290002881
1528372406583586953,-0.420474584464,0.0210886312851,0.0927965141579,-0.00484338044413,-0.0407036867892,-0.242179183357
1528372406583594621,-0.409885465795,0.0213165904822,0.104414791554,0.000990854517489,-0.0950895311325,-0.269390747802
1528372406627633481,-0.401669716189,0.0213655762203,0.0916789721479,-0.0156766152117,-0.0195215333647,-0.241547814388
1528372406656826906,-0.391493731542,0.0186660050449,0.0741070579431,-0.0164327615588,0.0470852916052,-0.238624209654
1528372406699537933,-0.381256668159,0.0218725029275,0.0571424260176,-0.0373724979822,0.0906317796878,-0.133453753068
1528372406699553943,-0.370314389932,0.0305120661977,0.0432704875226,-0.00353726751201,0.12886846161,-0.121445410208
1528372406743776488,-0.359071299612,0.0489182150441,0.0425327698885,-0.0763447885009,0.0766221699827,-0.019942349951
1528372406763163323,-0.343124955919,0.0626012535384,0.0478763246639,0.0286981874621,0.0405862044531,0.0562944859813
1528372406811580731,-0.330849955019,0.0747679588256,0.0619610853452,0.131137917751,-0.0237021521021,0.0824939161474
1528372406855610467,-0.312684979387,0.0823055743071,0.0728882780638,0.103888160645,-0.104403617819,0.0807963771564
1528372406899558084,-0.299729636974,0.0919127696666,0.0617430278226,0.0954503478938,-0.0249516784611,0.127004768758
1528372406899566457,-0.284945293126,0.0885652177875,0.0574715981889,0.115921156645,-0.0203456622572,0.104673766863
1528372406943601936,-0.26529836194,0.094749074203,0.0572186537183,0.12430321896,-0.0226943255224,0.0901471612663
1528372406948742411,-0.252230383486,0.101745195853,0.0632594863131,0.0430216836901,-0.123854497215,0.0939177288268
1528372406991613905,-0.23729134102,0.104128631716,0.0567279864488,0.05235093483,-0.0538553123033,0.077657607522
1528372407035596778,-0.223039080261,0.103875794979,0.049423757009,0.175086978622,-0.044596953446,0.043363812948
1528372407079525047,-0.218420185919,0.107902981686,0.053380214964,0.0480591658196,-0.0639773139951,0.0155336486209
1528372407079532841,-0.206547266091,0.114664792008,0.0406138117951,-0.0384458553087,0.0904465587954,0.0213137540725
1528372407123611867,-0.207214079208,0.12371169332,0.054102970182,0.0770777312724,-0.0804915649956,0.0531521605845
1528372407140760935,-0.207590975659,0.129227133436,0.0568971820701,0.131284543822,-0.0430785737384,0.0122335386564
1528372407189128791,-0.211350098312,0.134881569071,0.0521503468409,0.0584940857268,0.0300481246595,0.0086677791717
1528372407231568923,-0.212876930131,0.135053149752,0.0532045212794,0.0393476511801,0.0196604507684,-0.0182643730327
1528372407231595507,-0.212532468879,0.137911623323,0.0563566006035,0.084709486505,-0.0387038593283,-0.0373767610823
1528372407275516389,-0.21009223624,0.14165035618,0.0397540753743,0.00406882506913,0.0533919119602,0.00419020682573
1528372407295782012,-0.209023879412,0.127705248176,0.0322068769279,0.0750457597537,0.0777291110386,-0.112574977737
1528372407339556555,-0.206602727348,0.147922227564,0.0191879503051,-0.188991985579,0.104819854311,-0.0481961725306
1528372407383664260,-0.20678873243,0.154146922583,0.0145288560395,-0.00646669231445,0.096409521574,-0.0153079620817
1528372407431643039,-0.208827610204,0.162705585017,0.0327480231057,-0.00894197008522,-0.172863312005,-0.0462876269938
1528372407431654230,-0.217285219378,0.172198994431,0.0200078409844,0.055083689439,-0.0636546375901,-0.0139608903514
1528372407475600691,-0.225552024003,0.175410916289,0.00165839988416,-0.0751926623687,0.00618686093127,-0.0560334855964
1528372407479678636,-0.221663632239,0.16667153997,0.0035344938626,-0.222922582138,-0.0240573170265,-0.0758215134408
1528372407523776455,-0.216391766557,0.14351531255,0.00517614801425,0.10146030963,-0.1081332459,-0.137725568094
1528372407567602424,-0.220111419359,0.13494125323,-0.00733444142839,-0.15029325046,-0.0346777354682,-0.0962900863641
1528372407611597950,-0.227907048992,0.107641196497,-0.0199443629344,-0.0810185753809,0.15549006087,-0.129170092464
1528372407659542127,-0.229830523677,0.103154597444,-0.0188340324137,-0.135601743257,0.081164653819,-0.0260976523978
1528372407659551231,-0.227741612131,0.0985761460775,-0.0109058000837,-0.15183595903,-0.00137000205657,-0.0324537634492
1528372407703541496,-0.229304860324,0.0985614630999,0.00784697969042,0.0849337202292,-0.122215059807,0.0273948978415
1528372407703556473,-0.230663364577,0.0977870804175,0.022201777095,0.0459293719068,-0.185723201962,-5.09008197989e-05
1528372407747609935,-0.228865869672,0.102455580811,0.0292611360087,0.021084010302,-0.173882712412,0.0725536856471
1528372407766365947,-0.228514406213,0.0966908978534,0.0256997772835,0.123890913844,0.00718556518941,0.00287349237451
1528372407807724609,-0.233685189858,0.0886353084002,0.0380272910701,0.116599321521,-0.0562251324869,-0.0793051531205
1528372407855535865,-0.253438714721,0.0890720671688,0.0292259980045,0.104925702983,-0.0213182191456,-0.116326887142
1528372407899539698,-0.280644616743,0.0861052419794,0.0202091898062,0.0488018523678,0.0859250092406,-0.134506102288
1528372407899549531,-0.301765072749,0.0812085817164,0.025788031976,0.08341675788,0.142313730856,-0.13480282865
1528372407943608585,-0.32082824145,0.0792701839856,0.0542403415562,0.0787537298297,-0.0707377144304,-0.147419955749
1528372407954051662,-0.341126965441,0.0710750714594,0.0688285701289,0.0160228688628,-0.109463987163,-0.203362050017
1528372407996939400,-0.367836045104,0.071754573623,0.0640065708469,0.0400921768341,0.0378558187459,-0.15570950417
1528372408039666018,-0.393918683988,0.0590390554931,0.0700286310996,0.0951531064732,-0.0456806110105,-0.162084104637
1528372408083623872,-0.415555037904,0.0276466665337,0.0730102191644,0.0903757942701,-0.0125596756639,-0.26693178444
1528372408127602540,-0.435163950145,0.0253233795843,0.0831903767009,-0.0106055520189,0.0389214398748,-0.255544658551
1528372408127619845,-0.458502017164,0.0214799412519,0.0981490242348,0.0997067706112,-0.0999848574233,-0.29868751508
1528372408171576695,-0.476532658106,0.00865868119204,0.0927929064514,0.286805577194,-0.0276733720825,-0.334993466106
1528372408171584219,-0.489155377926,0.029292724959,0.0907648066787,-0.100907538341,0.0299073471621,-0.18833488005
1528372408220097526,-0.492779793015,0.020178332653,0.0903500288232,-0.0856503362609,0.00566290889393,-0.239677539013
1528372408243291595,-0.488667769571,0.0121928538215,0.0999339866871,0.0934881863286,-0.0466224754804,-0.342207963997
1528372408283575366,-0.479002552713,0.0292711118635,0.0989588855749,0.212219307269,-0.101838751258,-0.153041238032
1528372408327600570,-0.463074963153,0.0239223456645,0.0824324469652,-0.00119328908248,0.0672005554782,-0.264693475365
1528372408371602804,-0.440054077398,0.0367954659872,0.0814845263334,0.00189663610768,0.0286625063342,-0.27120963936
1528372408371616768,-0.41864818278,0.057185391023,0.0881311209738,0.057456563502,-0.026285287165,-0.151869873952
1528372408415569728,-0.396070913167,0.0721082527668,0.111200174448,-0.019431194452,-0.25795274372,-0.0752927930711
1528372408420471940,-0.374711189296,0.080934701094,0.105588357012,0.0834671612177,-0.157827497379,-0.0969956199504
1528372408463773064,-0.360485525981,0.100718717411,0.0973928699936,0.105178026203,-0.15258164868,0.0286112504927
1528372408507604928,-0.344277456342,0.100684616995,0.0785632752338,0.244191131165,-0.0614531842924,-0.0374738404115
1528372408551826427,-0.332296030495,0.113813481242,0.0668861241866,0.13541867043,-0.0106754173163,-0.0647672730713
1528372408551836323,-0.325954038638,0.135200376915,0.0592474379266,0.174300860103,0.042452031379,-0.0556546020232
1528372408595530419,-0.323499139297,0.188300545854,0.0536132045302,0.211867202739,0.0170601134335,0.139434556546
1528372408610062095,-0.315137549989,0.212820616877,0.0419058896359,0.235768378879,0.0747047236779,0.0891371725919
1528372408657412302,-0.306321235562,0.238892836817,0.0367894248553,0.219495838012,0.15738873788,0.043530834488
1528372408699548306,-0.294481872272,0.286846485769,0.0501386810228,0.0048445647596,0.147475020572,0.196755803964
1528372408699558937,-0.283261158312,0.304132454729,0.0596325993009,0.238009533208,-0.0750508203895,0.212223845808
1528372408747132029,-0.27393149144,0.309284736558,0.049926009052,0.251653931712,-0.0123471332805,0.114436511971
1528372408765993702,-0.2644733511,0.316399303674,0.0395172068971,-0.0839253850608,0.0915969802734,0.0704342402174
1528372408807731945,-0.259849325523,0.309171303287,0.0499044233969,-0.0220994435672,0.000904007539945,-0.0566742128785
1528372408851574271,-0.257901228245,0.307256649755,0.0570601566494,0.18855492989,-0.00206869625801,-0.0896970089437
1528372408895600452,-0.256375850278,0.324277374773,0.0556783293026,-0.0825301155977,0.0596603086313,-0.0513005112881
1528372408895609682,-0.259047643686,0.31797833131,0.0644136619907,-0.0972819900136,-0.0162792378368,-0.188054289598
1528372408939569070,-0.265779420746,0.326788369867,0.0486949960511,0.0494746541618,0.031039348208,-0.132216267037
1528372408950084350,-0.270931919855,0.337397834307,0.0312732941131,-0.010817692465,0.0749211636511,-0.0936378271135
1528372408991596416,-0.261870097569,0.345606850819,0.0422180324933,-0.0534883236981,0.0359295607474,-0.0967930001257
1528372409035587391,-0.262839900416,0.339849344789,0.0617229317539,0.179843604685,-0.257752861819,-0.206955182273
1528372409079609622,-0.271446728705,0.359134054202,0.0328567617477,0.134089748115,-0.149283122283,0.00909111686213
1528372409123649982,-0.273555420349,0.338979211261,0.032357187495,-0.0453755326923,-0.225598658246,-0.125284388142
1528372409123682812,-0.266255769911,0.321018741722,0.015048848006,-0.133296808634,-0.137151253797,-0.141960536455
1528372409171578955,-0.256918672891,0.332140758878,0.00117427484355,-0.155119211978,-0.022818958364,-0.00620744537631
1528372409180788827,-0.231109009053,0.334292795857,0.00733384945526,0.122737000204,-0.0273449486211,0.0288559633223
1528372409223678105,-0.199095527106,0.322956769577,0.0112006724867,0.107942720788,0.100614106315,-0.0377864002761
1528372409271572690,-0.180355741132,0.318634750122,0.0327952062483,-0.0113408997631,-0.168607976605,0.0727890150273
1528372409271580768,-0.170018963982,0.308376741586,0.0291909903063,0.0595484425839,-0.215182112293,0.0982550923422
1528372409315531523,-0.161687904331,0.290683824981,-0.00245532188754,0.166472826071,0.0276452820923,0.0111240056992
1528372409327532210,-0.156700840767,0.271495081992,-0.0135698610746,-0.0853063078684,0.0781409012113,-0.146823083659
1528372409367584108,-0.154048115188,0.281142142923,-0.0203237482061,0.0129337883678,0.173440940384,-0.0692727810307
1528372409411601638,-0.155692623665,0.288624407304,-0.00370102543826,0.0956733466665,0.0682192922992,-0.0969623564517
1528372409455647127,-0.155407269044,0.297708433558,0.0165711570075,0.0133972466269,-0.0639247331375,-0.123655125602
1528372409499566304,-0.158270621783,0.308039673428,-0.00329064453979,0.0421326222841,0.202267911083,-0.183949440246
1528372409499583610,-0.171544448048,0.3178316515,0.00303842294641,-0.0426502595819,0.0503280029432,-0.150385608763
1528372409543562343,-0.181280502309,0.32468258979,-0.00103102663423,0.0495811956341,0.0791426346176,-0.178901073707
1528372409543569181,-0.191697432645,0.341825249083,0.00157458291906,-0.0773723950764,0.0578770396123,-0.143163881241
1528372409596959127,-0.207729661267,0.348860169131,0.000191733780312,-0.106607713162,0.0951833174848,-0.21749999175
1528372409639558978,-0.227181303148,0.345265957066,0.0019408895708,-0.0610014947728,0.120927883969,-0.328487312546
1528372409683756041,-0.251969282476,0.348177937408,0.00781125552446,-0.188107010607,0.108270763826,-0.314264448418
1528372409683768886,-0.281143718,0.360883733403,0.0100395468813,-0.170138457237,0.0741727089048,-0.221521999145
1528372409727703875,-0.309843270931,0.339371413783,0.0146369830797,-0.0893048994582,0.0413250519835,-0.386714511165
1528372409753112670,-0.331767647141,0.321783846626,0.0254223501816,-0.19099136987,-0.000165986496992,-0.479452367747
1528372409795570275,-0.35366471015,0.307131203392,0.0249670677953,-0.11751209739,0.0435219087538,-0.518854585212
1528372409839723062,-0.370573256928,0.278227171816,0.014994815998,-0.196827466311,0.0580289471771,-0.575025918602
1528372409839758942,-0.38283614636,0.277417906755,0.0148221471664,-0.153248592104,0.0231455877422,-0.497271506218
1528372409883604657,-0.380429772083,0.283499453083,0.039074280702,-0.147772223098,-0.121353407972,-0.414802506719
1528372409894008915,-0.376674914958,0.288008843356,0.0620545186305,-0.038465134048,-0.284194409012,-0.345005183986
1528372409935623028,-0.376393393609,0.286359182059,0.053209531748,0.0393320123588,-0.194953575437,-0.315328036894
1528372409979554948,-0.374412717438,0.288762248897,0.0486408317386,-0.0307124777143,-0.182803672179,-0.240010362344
1528372410023638074,-0.362802937602,0.288885454325,0.0304738632182,-0.0735985137908,-0.00213246280147,-0.256917378946
1528372410023668039,-0.346204644661,0.304178460202,0.0129199842665,-0.0459800725457,0.119995458558,-0.167192803849
1528372410067613981,-0.318689359967,0.321803598846,0.0199431497908,-0.0474750400174,0.0220708008221,-0.0955065205921
1528372410083018697,-0.283209182451,0.333195799705,0.0284836691546,0.0243932895303,-0.0698967612165,-0.0254785238383
1528372410123517145,-0.252945846463,0.342430159998,0.0199032354326,0.0669110751509,0.00449074301117,-0.0148969629902
1528372410167624297,-0.232087857124,0.352262830708,-0.0028998172913,0.173162849425,0.106231520919,0.0186519495426
1528372410211854090,-0.209509347355,0.361216867794,-0.0202878067789,0.0680872763757,0.124408276178,0.0612875198331
1528372410211889431,-0.191137876546,0.365983981418,-0.0340883363351,0.051733591678,0.260584552106,0.0229381110009
